$GPRMC,224119.200,A,3927.2666,N,10711.1487,W,0.28,122.75,240415,,,A*7B
$GPVTG,122.75,T,,M,0.28,N,0.52,K,A*33
$GPGGA,224119.400,3927.2667,N,10711.1487,W,1,7,1.07,2086.2,M,-18.0,M,,*5A
$GPGLL,3927.2667,N,10711.1487,W,224119.400,A,A*44
$GPGSA,A,3,30,17,28,13,11,19,07,,,,,,1.38,1.07,0.87*03
$GPGSV,3,1,10,30,81,019,19,28,59,290,28,07,57,111,28,51,44,180,28*7E
$GPGSV,3,2,10,11,37,102,27,13,31,309,19,19,25,044,29,17,25,203,27*78
$GPGGA,022724.476,4851.883,N,00217.109,E,1,12,1.0,0.0,M,0.0,M,,*6D
$GPGSA,A,3,01,02,03,04,05,06,07,08,09,10,11,12,1.0,1.0,1.0*30
$GPGGA,022725.476,3857.565,N,00826.250,W,1,12,1.0,0.0,M,0.0,M,,*7D
$GPGSA,A,3,01,02,03,04,05,06,07,08,09,10,11,12,1.0,1.0,1.0*30
$GPRMC,022725.476,A,3857.565,N,00826.250,W,2709492.5,227.2,050422,000.0,W*6B
$GPRMC,092750.000,A,5321.6802,N,00630.3372,W,0.02,31.66,280511,,,A*43
$GPGGA,092751.000,5321.6802,N,00630.3371,W,1,8,1.03,61.7,M,55.3,M,,*75
$GPGSA,A,3,10,07,05,02,29,04,08,13,,,,,1.72,1.03,1.38*0A
$GPGSV,3,1,11,10,63,137,17,07,61,098,15,05,59,290,20,08,54,157,30*70
$GPGSV,3,2,11,02,39,223,16,13,28,070,17,26,23,252,,04,14,186,15*77
$GPGSV,3,3,11,29,09,301,24,16,09,020,,36,,,*76
$GPRMC,161229.487,A,3723.2475,N,12158.3416,W,0.13,309.62,120598,,*10
$GPRMC,180605.0,A,2905.099584,N,11058.190134,W,0.0,,161216,0.0,E,A*34'
$GPGGA,032148.858,4334.823,N,11457.656,W,1,12,1.0,0.0,M,0.0,M,,*7F
$GPGSA,A,3,01,02,03,04,05,06,07,08,09,10,11,12,1.0,1.0,1.0*30
$GPRMC,032148.858,A,4334.823,N,11457.656,W,14964501.7,084.1,050422,000.0,W*5A
$GPGGA,032149.858,6225.864,N,10507.031,E,1,12,1.0,0.0,M,0.0,M,,*6E
$GPGSA,A,3,01,02,03,04,05,06,07,08,09,10,11,12,1.0,1.0,1.0*30
$GPRMC,032149.858,A,6225.864,N,10507.031,E,14964501.7,084.1,050422,000.0,W*4B
$GPGGA,032148.858,3453.156,S,06441.250,W,1,12,1.0,0.0,M,0.0,M,,*6B
$GPGSA,A,3,01,02,03,04,05,06,07,08,09,10,11,12,1.0,1.0,1.0*30
$GPGGA,032150.858,6800.454,N,15028.125,W,1,12,1.0,0.0,M,0.0,M,,*7F
$GPGSA,A,3,01,02,03,04,05,06,07,08,09,10,11,12,1.0,1.0,1.0*30
$GPRMC,032150.858,A,6800.454,N,15028.125,W,20240905.9,287.1,050422,000.0,W*57
$GPRMC,032148.858,A,4331.001,N,14249.336,E,050422,000.0,W*7A
$GPGGA,032148.858,4331.001,N,14249.336,E,1,12,1.0,0.0,M,0.0,M,,*6F
$GPGSA,A,3,01,02,03,04,05,06,07,08,09,10,11,12,1.0,1.0,1.0*30
$GPRMC,032148.858,A,4331.001,N,14249.336,E,9407334.3,266.9,050422,000.0,W*7C
$GPGGA,032149.858,4006.701,N,08319.219,E,1,12,1.0,0.0,M,0.0,M,,*6B
$GPGSA,A,3,01,02,03,04,05,06,07,08,09,10,11,12,1.0,1.0,1.0*30
$GPRMC,032149.858,A,4006.701,N,08319.219,E,24836613.3,181.6,050422,000.0,W*4C
$GPGGA,032150.858,7446.551,S,08009.375,E,1,12,1.0,0.0,M,0.0,M,,*73
$GPGSA,A,3,01,02,03,04,05,06,07,08,09,10,11,12,1.0,1.0,1.0*30
$GPRMC,032150.858,A,7446.551,S,08009.375,E,20068341.6,294.8,050422,000.0,W*5D
$GPGGA,032151.858,0845.288,S,05903.750,W,1,12,1.0,0.0,M,0.0,M,,*66
$GPGSA,A,3,01,02,03,04,05,06,07,08,09,10,11,12,1.0,1.0,1.0*30
$GPRMC,032151.858,A,0845.288,S,05903.750,W,22765625.8,056.2,050422,000.0,W*4F
$GPGGA,032152.858,6146.387,N,04706.563,E,1,12,1.0,0.0,M,0.0,M,,*60
$GPGSA,A,3,01,02,03,04,05,06,07,08,09,10,11,12,1.0,1.0,1.0*30
$GPRMC,032152.858,A,6146.387,N,04706.563,E,9535425.0,231.4,050422,000.0,W*78
$GPGGA,032153.858,2741.012,N,00434.219,E,1,12,1.0,0.0,M,0.0,M,,*67
$GPGSA,A,3,01,02,03,04,05,06,07,08,09,10,11,12,1.0,1.0,1.0*30
$GPRMC,032153.858,A,2741.012,N,00434.219,E,13956816.8,284.9,050422,000.0,W*4A
$GPGGA,032154.858,4909.178,N,07741.719,W,1,12,1.0,0.0,M,0.0,M,,*78
$GPGSA,A,3,01,02,03,04,05,06,07,08,09,10,11,12,1.0,1.0,1.0*30
$GPRMC,032154.858,A,4909.178,N,07741.719,W,3951943.0,251.5,050422,000.0,W*6E
$GPGGA,032155.858,4114.686,N,10115.000,W,1,12,1.0,0.0,M,0.0,M,,*75
$GPGSA,A,3,01,02,03,04,05,06,07,08,09,10,11,12,1.0,1.0,1.0*30
$GPRMC,032155.858,A,4114.686,N,10115.000,W,14934762.7,082.0,050422,000.0,W*55
$GPGGA,032156.858,6704.046,N,11002.344,E,1,12,1.0,0.0,M,0.0,M,,*6E
$GPGSA,A,3,01,02,03,04,05,06,07,08,09,10,11,12,1.0,1.0,1.0*30
$GPRMC,032156.858,A,6704.046,N,11002.344,E,14934762.7,082.0,050422,000.0,W*4E
$GPRMC,081836,A,3751.65,S,14507.36,E,000.0,360.0,130998,011.3,E*62
$GPRMC,225446,A,4916.45,N,12311.12,W,000.5,054.7,191194,020.3,E*68
$GPRMC,220516,A,5133.82,N,00042.24,W,173.8,231.8,130694,004.2,W*70
$GPGGA,131317.212,7709.430,N,04727.656,W,1,12,1.0,0.0,M,0.0,M,,*76
$GPGSA,A,3,01,02,03,04,05,06,07,08,09,10,11,12,1.0,1.0,1.0*30
$GPRMC,131317.212,A,7709.430,N,04727.656,W,8793514.2,093.4,050422,000.0,W*6A
$GPGGA,131318.212,6206.233,N,13852.031,E,1,12,1.0,0.0,M,0.0,M,,*69
$GPGSA,A,3,01,02,03,04,05,06,07,08,09,10,11,12,1.0,1.0,1.0*30
$GPRMC,131318.212,A,6206.233,N,13852.031,E,18885042.7,183.5,050422,000.0,W*4E
$GPGGA,131319.212,2509.910,S,13335.625,E,1,12,1.0,0.0,M,0.0,M,,*7A
$GPGSA,A,3,01,02,03,04,05,06,07,08,09,10,11,12,1.0,1.0,1.0*30
$GPRMC,131319.212,A,2509.910,S,13335.625,E,23755097.6,292.4,050422,000.0,W*5C
$GPGGA,131320.212,1758.724,N,02931.875,E,1,12,1.0,0.0,M,0.0,M,,*64
$GPGSA,A,3,01,02,03,04,05,06,07,08,09,10,11,12,1.0,1.0,1.0*30
$GPRMC,131320.212,A,1758.724,N,02931.875,E,10589670.3,186.2,050422,000.0,W*4B
$GPGGA,131321.212,3045.077,S,02415.469,E,1,12,1.0,0.0,M,0.0,M,,*7A
$GPGSA,A,3,01,02,03,04,05,06,07,08,09,10,11,12,1.0,1.0,1.0*30
$GPRMC,131321.212,A,3045.077,S,02415.469,E,17327663.2,343.8,050422,000.0,W*52
$GPGGA,131322.212,4648.004,N,00145.469,E,1,12,1.0,0.0,M,0.0,M,,*6E
$GPGSA,A,3,01,02,03,04,05,06,07,08,09,10,11,12,1.0,1.0,1.0*30
$GPRMC,131322.212,A,4648.004,N,00145.469,E,1522716.8,218.9,050422,000.0,W*75
$GPGGA,131323.212,4042.837,N,00309.844,W,1,12,1.0,0.0,M,0.0,M,,*70
$GPGSA,A,3,01,02,03,04,05,06,07,08,09,10,11,12,1.0,1.0,1.0*30
$GPRMC,131323.212,A,4042.837,N,00309.844,W,11986957.0,285.4,050422,000.0,W*52
$GPGGA,131324.212,6613.887,N,09847.344,W,1,12,1.0,0.0,M,0.0,M,,*7F
$GPGSA,A,3,01,02,03,04,05,06,07,08,09,10,11,12,1.0,1.0,1.0*30
$GPRMC,131324.212,A,6613.887,N,09847.344,W,3033626.7,242.0,050422,000.0,W*68
$GPGGA,131325.212,5546.594,N,11828.594,W,1,12,1.0,0.0,M,0.0,M,,*7A
$GPGSA,A,3,01,02,03,04,05,06,07,08,09,10,11,12,1.0,1.0,1.0*30
$GPRMC,131325.212,A,5546.594,N,11828.594,W,7061804.5,119.4,050422,000.0,W*6B
$GPGGA,131326.212,3453.156,N,08133.750,W,1,12,1.0,0.0,M,0.0,M,,*71
$GPGSA,A,3,01,02,03,04,05,06,07,08,09,10,11,12,1.0,1.0,1.0*30
$GPRMC,131326.212,A,3453.156,N,08133.750,W,10960240.2,149.6,050422,000.0,W*54
$GPGGA,131327.212,0926.944,S,05532.813,W,1,12,1.0,0.0,M,0.0,M,,*6A
$GPGSA,A,3,01,02,03,04,05,06,07,08,09,10,11,12,1.0,1.0,1.0*30
$GPRMC,131327.212,A,0926.944,S,05532.813,W,6060721.9,195.9,050422,000.0,W*76
$GPGGA,131328.212,3635.873,S,06316.875,W,1,12,1.0,0.0,M,0.0,M,,*6D
$GPGSA,A,3,01,02,03,04,05,06,07,08,09,10,11,12,1.0,1.0,1.0*30
$GPRMC,131328.212,A,3635.873,S,06316.875,W,7317609.5,337.7,050422,000.0,W*70
$GPGGA,131329.212,0454.950,S,07617.344,W,1,12,1.0,0.0,M,0.0,M,,*66
$GPGSA,A,3,01,02,03,04,05,06,07,08,09,10,11,12,1.0,1.0,1.0*30
$GPRMC,131329.212,A,0454.950,S,07617.344,W,7953925.2,094.9,050422,000.0,W*73
$GPGGA,131330.212,0803.554,S,03922.500,W,1,12,1.0,0.0,M,0.0,M,,*63
$GPGSA,A,3,01,02,03,04,05,06,07,08,09,10,11,12,1.0,1.0,1.0*30
$GPRMC,131330.212,A,0803.554,S,03922.500,W,2724316.6,289.3,050422,000.0,W*77
$GPGGA,131331.212,0351.855,S,05119.688,W,1,12,1.0,0.0,M,0.0,M,,*67
$GPGSA,A,3,01,02,03,04,05,06,07,08,09,10,11,12,1.0,1.0,1.0*30
$GPRMC,131331.212,A,0351.855,S,05119.688,W,3494492.9,175.0,050422,000.0,W*7D
$GPGGA,131332.212,1958.401,S,04955.313,W,1,12,1.0,0.0,M,0.0,M,,*6D
$GPGSA,A,3,01,02,03,04,05,06,07,08,09,10,11,12,1.0,1.0,1.0*30
$GPRMC,131332.212,A,1958.401,S,04955.313,W,18333133.3,314.9,050422,000.0,W*4F
$GPGGA,131333.212,4217.614,N,11230.000,W,1,12,1.0,0.0,M,0.0,M,,*7F
$GPGSA,A,3,01,02,03,04,05,06,07,08,09,10,11,12,1.0,1.0,1.0*30
$GPRMC,131333.212,A,4217.614,N,11230.000,W,7319836.8,301.9,050422,000.0,W*68
$GPGGA,131334.212,6800.454,N,15420.156,W,1,12,1.0,0.0,M,0.0,M,,*71
$GPGSA,A,3,01,02,03,04,05,06,07,08,09,10,11,12,1.0,1.0,1.0*30
$GPRMC,131334.212,A,6800.454,N,15420.156,W,10991238.6,091.3,050422,000.0,W*50
$GPGGA,131335.212,5826.864,N,06131.406,E,1,12,1.0,0.0,M,0.0,M,,*6D
$GPGSA,A,3,01,02,03,04,05,06,07,08,09,10,11,12,1.0,1.0,1.0*30
$GPRMC,131335.212,A,5826.864,N,06131.406,E,10991238.6,091.3,050422,000.0,W*4C